[{"shop": "Tan Tock Seng Hospital ", "timestamp": "6/21/2013 12:13:07", "price": "$3", "longitude": 103.8460816, "item": "N95 Mask", "address": "11 Jalan Tan Tock Seng", "latitude": 1.3214083, "ID": 1}, {"shop": "NUS Lab Supplies Store", "timestamp": "6/21/2013 12:19:46", "price": "$21.15", "longitude": 103.7703561, "item": "N95 Mask", "address": " #B1-03, 10 Medical Drive, Clinical Research Centre, National University of Singapore", "latitude": 1.2933539, "ID": 2, "quantity": "20"}, {"shop": "CGH", "comment": "(limit to 5pcs per person)", "timestamp": "6/21/2013 12:35:19", "price": "$2.5", "longitude": 103.9492052, "item": "N95 Mask", "address": "Changi General Hospital", "latitude": 1.3399885, "ID": 3, "quantity": ""}, {"shop": "yong fah international pte ltd", "comment": "N95 3M8210", "timestamp": "6/21/2013 12:35:43", "price": "$50", "longitude": 103.9042929, "item": "N95 Mask", "address": "60 kakit bukit place #04-15 Eunos Techpark ", "latitude": 1.3359552, "ID": 4, "quantity": "20"}, {"shop": "my house", "comment": "i am fedex-ing it from PHP. I can just pass to everyone at cost. will show receipt. please text me at 94777112.", "timestamp": "6/21/2013 12:47:06", "price": "", "longitude": 103.7426367, "item": "N95 Mask", "address": "39 teban gardens", "latitude": 1.3214823, "ID": 5, "quantity": ""}, {"shop": "Watson", "timestamp": "6/21/2013 12:54:21", "longitude": 103.745046, "item": "N95 Mask", "address": "21 Choa Chu Kang Avenue 4, Lot 1 #02-07", "latitude": 1.384848, "ID": 6}, {"shop": "Mustafa", "timestamp": "6/21/2013 13:13:51", "price": "$48", "longitude": 103.8550269, "item": "N95 Mask", "address": "145 Syed Alwi Rd, 207704", "latitude": 1.310192, "ID": 7, "quantity": "20"}, {"shop": "Watsons", "comment": "Any reasonable cost is okay", "timestamp": "6/21/2013 13:16:08", "price": "", "longitude": 103.894775, "item": "N95 Mask", "address": "1 Sengkang Square, Singapore 545078", "latitude": 1.392272, "ID": 8, "quantity": ""}, {"shop": "SGH pharmacy", "timestamp": "6/21/2013 13:33:17", "price": "2.5", "longitude": 103.834125, "item": "N95 Mask", "address": "Block 4 Level 1  , Outram Rd, Singapore 169608", "latitude": 1.278761, "ID": 9}, {"shop": "Fabrico", "timestamp": "6/21/2013 13:54:21", "price": "2", "longitude": 103.8416314, "item": "N95 Mask", "address": "39 Jalan Peminpin", "latitude": 1.3493311, "ID": 10}, {"shop": "guardian", "timestamp": "6/21/2013 13:54:33", "longitude": 103.785826, "item": "N95 Mask", "address": "1 Woodlands Square #B1-28/30 Causeway Point S738079", "latitude": 1.4358519, "ID": 11}, {"shop": "Watson", "timestamp": "6/21/2013 13:57:33", "longitude": 103.8725843, "item": "N95 Mask", "address": "152 Serangoon North Avenue 1 #01-342, Singapore 550152", "latitude": 1.3694055, "ID": 12}, {"shop": "watson", "timestamp": "6/21/2013 14:07:20", "longitude": 103.833358, "item": "N95 Mask", "address": "#02-43 Far East Plaza, 14 Scotts Road, Singapore 228213", "latitude": 1.307249, "ID": 13}, {"shop": "Fabrico", "comment": "Please call 92280826", "timestamp": "6/21/2013 14:07:31", "price": "", "longitude": 103.8416314, "item": "N95 Mask", "address": "39 Jalan Peminpin", "latitude": 1.3493311, "ID": 14, "quantity": ""}, {"shop": "watsons", "timestamp": "6/21/2013 14:21:59", "longitude": 103.8593075, "item": "N95 Mask", "address": "toa payoh", "latitude": 1.3381663, "ID": 15}, {"shop": "Quantum Safety", "timestamp": "6/21/2013 14:25:57", "longitude": 103.861258, "item": "N95 Mask", "address": "Block 1004 Toa Payoh Industrial Park #05-1481. Singapore 319076", "latitude": 1.334594, "ID": 16}, {"shop": "PSE Safety", "timestamp": "6/21/2013 14:27:17", "longitude": 103.8832694, "item": "N95 Mask", "address": "#11-02, Mae Industrial Building, 48 Mactaggart Rd, Singapore 368088 \u200e", "latitude": 1.3341545, "ID": 17}, {"shop": "Pava Dried Fruits, Food Court ", "comment": "4 box left", "timestamp": "6/21/2013 14:30:55", "price": "", "longitude": 103.8988557, "item": "N95 Mask", "address": "Ubi Ave 1 ", "latitude": 1.32645, "ID": 18, "quantity": ""}, {"shop": "MasterPro", "timestamp": "6/21/2013 14:33:34", "price": "$4.28", "longitude": 103.7547249, "item": "N95 Mask", "address": "48 Toh Guan Road East,  #01-98 Enterprise Hub,  Singapore 608586 ", "latitude": 1.337078, "ID": 19}, {"shop": "QSN Safety", "timestamp": "6/21/2013 14:36:43", "longitude": 103.861258, "item": "N95 Mask", "address": " Blk 1004 Toa Payoh Industrial Park, #05-1479 Singapore 319076", "latitude": 1.334594, "ID": 20}, {"shop": "Fischer Bell Private Ltd", "timestamp": "6/21/2013 14:38:47", "longitude": 103.752013, "item": "N95 Mask", "address": "194 Pandan Loop #02-30 Pantech Business Hub Singapore 128383", "latitude": 1.310338, "ID": 21}, {"shop": "AMK Global Distribution Pte Ltd ", "timestamp": "6/21/2013 14:39:41", "longitude": 103.856748, "item": "N95 Mask", "address": "4012 Ang Mo Kio Avenue 10, Singapore 569628 \u200e", "latitude": 1.360963, "ID": 22}, {"shop": "Freshening Holdings Pte Ltd", "timestamp": "6/21/2013 14:42:06", "longitude": 103.9725689, "item": "N95 Mask", "address": "4, Loyang Link, Singapore 508895", "latitude": 1.3832109, "ID": 23}, {"shop": "3M 8110s", "comment": "Mass Technologies Pte Ltd, 6763 4600", "timestamp": "6/21/2013 15:06:59", "price": "$35", "longitude": 103.7511569, "item": "Air purifier", "address": "7 Bukit Batok Street 22, 659584", "latitude": 1.3448756, "ID": 24, "quantity": "20"}, {"shop": "VERTIS P/L", "timestamp": "6/21/2013 15:09:37", "price": "$ 3.50", "longitude": 103.8320369, "item": "N95 Mask", "address": "LENTOR", "latitude": 1.3955072, "ID": 25}, {"shop": "Chem Industry", "timestamp": "6/21/2013 15:13:13", "price": "$37.6", "longitude": 103.9424704, "item": "N95 Mask", "address": "Blk 9004 tampines st 93 #03-124/120", "latitude": 1.3408201, "ID": 26, "quantity": "20"}, {"shop": "Qbiz hardware Pte Ltd", "timestamp": "6/21/2013 15:14:50", "price": "$35", "longitude": 103.642923, "item": "N95 Mask", "address": "50 Tuas Ave 11 #02-05 Tuas Lot Singapore 693107", "latitude": 1.325304, "ID": 27, "quantity": "20"}, {"shop": "BIS International Pte Ltd", "comment": "each person can only buy 2 box", "timestamp": "6/21/2013 15:15:51", "price": "", "longitude": 103.757222, "item": "N95 Mask", "address": "55 Toh Guan Road East, #02-02, Uni-Tech Centre, Singapore 608601", "latitude": 1.336195, "ID": 28, "quantity": ""}, {"shop": "NUH Pharmacy", "timestamp": "6/21/2013 15:35:25", "price": "2.5", "longitude": 103.783401, "item": "N95 Mask", "address": "National University Hospital, Singapore", "latitude": 1.294373, "ID": 29}, {"shop": "QMT", "timestamp": "6/21/2013 15:53:11", "price": "45", "longitude": 103.7524452, "item": "N95 Mask", "address": "36 Toh Guan Road", "latitude": 1.3368991, "ID": 30, "quantity": "20"}, {"shop": "guardian", "timestamp": "6/21/2013 15:54:26", "longitude": 47.150951, "item": "N95 Mask", "address": "amara", "latitude": 31.837339, "ID": 31}, {"shop": "MDIS 7 ELEVEN", "timestamp": "6/21/2013 15:55:14", "price": "$6", "longitude": 103.804944, "item": "N95 Mask", "address": "Queenstown Sterling rd", "latitude": 1.295268, "ID": 32}, {"shop": "Masterpro Industrial", "timestamp": "6/21/2013 15:57:49", "price": "$4", "longitude": 103.7553043, "item": "N95 Mask", "address": "48 Toh Guan Road East", "latitude": 1.3366334, "ID": 33}, {"shop": "guardian", "timestamp": "6/21/2013 15:58:44", "longitude": 103.8158299, "item": "N95 Mask", "address": "sembawang", "latitude": 1.4533799, "ID": 34}, {"shop": "guardian", "timestamp": "6/21/2013 15:59:57", "longitude": 103.8930556, "item": "N95 Mask", "address": "hougang", "latitude": 1.3717778, "ID": 35}, {"shop": "guardian", "timestamp": "6/21/2013 16:00:59", "longitude": 114.1654865, "item": "N95 Mask", "address": "admiralty", "latitude": 22.2796357, "ID": 36}, {"shop": "Kim Sang Medical Hall @ Fernvale Point", "timestamp": "6/21/2013 16:03:22", "price": "$65", "longitude": 103.8763673, "item": "N95 Mask", "address": "21 Seng Kang West Ave #01-10", "latitude": 1.3911153, "ID": 37, "quantity": "20"}, {"shop": "Abilash", "comment": "Please call 92280826,", "timestamp": "6/21/2013 16:03:35", "price": "", "longitude": 103.8416314, "item": "N95 Mask", "address": "39 Jalan Peminpin", "latitude": 1.3493311, "ID": 38, "quantity": ""}, {"shop": "Unity", "comment": "1 pax max can buy 2pcs.", "timestamp": "6/21/2013 16:03:41", "price": "$2.5", "longitude": 103.904984, "item": "N95 Mask", "address": "Rivervale Mall, 11 Rivervale Crescent, Singapore 545082 \u200e", "latitude": 1.392002, "ID": 39, "quantity": "1"}, {"shop": "Guardian", "timestamp": "6/21/2013 16:04:47", "longitude": 14.3419159, "item": "N95 Mask", "address": "Clementi", "latitude": 42.1915734, "ID": 40}, {"shop": "guardian", "comment": "Out of stock", "timestamp": "6/21/2013 16:06:13", "price": "", "longitude": 106.6799159, "item": "N95 Mask", "address": "fajar", "latitude": -6.182204, "ID": 41, "quantity": ""}, {"shop": "Sin Heap Hin", "timestamp": "6/21/2013 16:05:43", "price": "$1.925", "longitude": 114.9131861, "item": "N95 Mask", "address": "Batu Bersurat, Brunei Darusallam", "latitude": 4.913617599999999, "ID": 42, "quantity": "1"}, {"shop": "Kim Sang Medical Hall @ Fernvale Point", "timestamp": "6/21/2013 16:07:48", "price": "$65", "longitude": 103.8763673, "item": "N95 Mask", "address": "21 Seng Kang West Ave #01-10", "latitude": 1.3911153, "ID": 43, "quantity": "20"}, {"shop": "Medic Drugstore", "timestamp": "6/21/2013 16:08:50", "price": "$5", "longitude": 103.8432775, "item": "N95 Mask", "address": "Tanjong Pagar Plaza", "latitude": 1.2763644, "ID": 44}, {"shop": "Trolley cart by entrance of Katong Shopping Centre", "timestamp": "6/21/2013 16:10:46", "price": "$3", "longitude": 103.9009748, "item": "N95 Mask", "address": "Katong Shopping Centre, Mountbatten Road", "latitude": 1.3039372, "ID": 45, "quantity": "1"}, {"shop": "Hardware Store \u4e94\u91d1\u57ce", "timestamp": "6/21/2013 16:10:50", "price": "$2", "longitude": 103.7547249, "item": "N95 Mask", "address": "48 Toh Guan Road East Enterprises Hub #01-147/48, Singapore, Singapore 608586", "latitude": 1.337078, "ID": 46, "quantity": "1"}, {"shop": "guardian", "timestamp": "6/21/2013 16:14:14", "longitude": 121.0424187, "item": "N95 Mask", "address": "sun plaza", "latitude": 14.7537636, "ID": 47}, {"shop": "Guardian", "timestamp": "6/21/2013 16:14:32", "longitude": 103.8593075, "item": "N95 Mask", "address": "Toa Payoh", "latitude": 1.3381663, "ID": 48}, {"shop": "Bion Advance", "timestamp": "6/21/2013 16:16:09", "price": "$5", "longitude": 103.8456839, "item": "N95 Mask", "address": "RenCi Hospital", "latitude": 1.3229779, "ID": 49}, {"shop": "3m", "timestamp": "6/21/2013 16:20:41", "longitude": 103.7578815, "item": "N95 Mask", "address": "bukit batok", "latitude": 1.3598454, "ID": 50}, {"shop": "Guardian", "timestamp": "6/21/2013 16:23:18", "longitude": 103.787951, "item": "N95 Mask", "address": "Fusionopolis", "latitude": 1.300309, "ID": 51}, {"shop": "Guardian", "comment": "Sold Out", "timestamp": "6/21/2013 16:23:37", "price": "", "longitude": -6.4041001, "item": "N95 Mask", "address": "ION", "latitude": 56.3347303, "ID": 52, "quantity": ""}, {"shop": "Mustafa", "timestamp": "6/21/2013 16:24:10", "price": "$48", "longitude": 103.854317, "item": "N95 Mask", "address": "Farrer Park MRT", "latitude": 1.312426, "ID": 53, "quantity": "20"}, {"shop": "Sunny Dental Medical Supply", "timestamp": "6/21/2013 16:24:58", "price": "$1.4", "longitude": 103.890011, "item": "N95 Mask", "address": "180 Paya Lebar Road, #05-07 Yi Guang Factory Building, Singapore 409032", "latitude": 1.330885, "ID": 54, "quantity": "1"}, {"shop": "Guardian", "timestamp": "6/21/2013 16:29:52", "longitude": -106.0107759, "item": "N95 Mask", "address": "Nex", "latitude": 28.6419852, "ID": 55}, {"shop": "Unity", "timestamp": "6/21/2013 16:33:21", "price": "$2.5", "longitude": 103.8274741, "item": "N95 Mask", "address": "Tiong bahru plaza", "latitude": 1.2860005, "ID": 56}, {"shop": "guardian", "timestamp": "6/21/2013 16:35:00", "longitude": 168.5510234, "item": "N95 Mask", "address": "woodlands", "latitude": -46.355671, "ID": 57}, {"shop": "Unity Healthcare Tampines", "comment": "OOS", "timestamp": "6/21/2013 16:35:51", "price": "", "longitude": 103.953958, "item": "N95 Mask", "address": "Tampines Community Centre", "latitude": 1.3454723, "ID": 58, "quantity": ""}, {"shop": "1st Prize Trading", "timestamp": "6/21/2013 16:40:37", "price": "$85", "longitude": 103.905049, "item": "N95 Mask", "address": "80 Marine Parade Road, Parkway Parade, #B1-18B, Singapore 449269", "latitude": 1.301948, "ID": 59, "quantity": "20"}, {"shop": "Seattle Technologies", "timestamp": "6/21/2013 16:44:05", "price": "$3", "longitude": 103.896145, "item": "N95 Mask", "address": "10 Ubi Crescent #02-05, Ubi Techpark, Singapore 408564 ,\u200e #07-57", "latitude": 1.326293, "ID": 60, "quantity": "1"}, {"shop": "guardian", "timestamp": "6/21/2013 16:44:53", "longitude": 103.7696901, "item": "N95 Mask", "address": "bukit panajang plaza", "latitude": 1.3786802, "ID": 61}, {"shop": "Mass Technologies Pte Ltd", "comment": " N95 3M8210", "timestamp": "6/21/2013 16:46:31", "price": "$35", "longitude": "103.75121", "item": "N95 Mask", "address": "7 Bukit Batok Street 22 Singapore 659584", "latitude": "1.34472", "ID": 62, "quantity": "20"}, {"shop": "\u4e94\u91d1\u57ce Hardware Store", "timestamp": "6/21/2013 16:48:53", "price": "$40", "longitude": 103.7553043, "item": "N95 Mask", "address": "48 Toh Guan Rd East #01-147/148", "latitude": 1.3366334, "ID": 63, "quantity": "20"}, {"shop": "Grace Healthcare Products Pharmacy", "comment": "", "timestamp": "6/21/2013 16:49:24", "price": "", "longitude": "103.7513", "item": "Air\u00a0purifier\u00a0and Mask", "address": "Blk 634, Bukit Batok Central,  #01-110", "latitude": "1.34955", "ID": 64, "quantity": ""}, {"shop": "Grace Healthcare Products Pharmacy", "comment": "", "timestamp": "6/21/2013 16:50:19", "price": "", "longitude": "103.9416", "item": "Air\u00a0purifier\u00a0and Mask", "address": "Blk 57A, New Upper Changi Road, #01-1380", "latitude": "1.32416", "ID": 65, "quantity": ""}, {"shop": "Watsons, Clementi Mall", "comment": "", "timestamp": "6/21/2013 17:18:06", "price": "", "longitude": "103.76461", "item": "N95 Mask", "address": "3155 Commonwealth Avenue West, Singapore 129588", "latitude": "1.31507", "ID": 66, "quantity": ""}, {"shop": "guardian ", "timestamp": "6/21/2013 17:18:48", "longitude": 103.904984, "item": "N95 Mask", "address": "11 Rivervale Crescent #01-32", "latitude": 1.392002, "ID": 67}, {"shop": "Compassvale Sec Sch", "timestamp": "6/21/2013 17:22:07", "price": "$20", "longitude": 103.8996686, "item": "N95 Mask", "address": "Compassvale Secondary School", "latitude": 1.395896, "ID": 68, "quantity": "20"}, {"shop": "watson", "comment": "", "timestamp": "6/21/2013 17:22:56", "price": "", "longitude": "103.94517", "item": "N95 Mask", "address": "#B1-07/08/09, 4 Tampinese Central 5 S529510", "latitude": "1.35263", "ID": 69, "quantity": ""}, {"shop": "guardian", "timestamp": "6/21/2013 17:28:16", "longitude": 103.7953129, "item": "N95 Mask", "address": "211 Holland Avenue, Singapore 278967", "latitude": 1.310177, "ID": 70}, {"shop": "watsons", "timestamp": "6/21/2013 17:30:27", "longitude": 103.933397, "item": "N95 Mask", "address": "bedok central", "latitude": 1.325728, "ID": 71}, {"shop": "Mae building", "timestamp": "6/21/2013 17:39:47", "price": "$12", "longitude": 103.8832694, "item": "N95 Mask", "address": "48 ms tag art rd #11-09", "latitude": 1.3341545, "ID": 72, "quantity": "20"}, {"shop": "guardian", "timestamp": "6/21/2013 17:50:53", "longitude": 103.955007, "item": "N95 Mask", "address": "tampines", "latitude": 1.3399548, "ID": 73}, {"shop": "Tengah Engineering & Hardware", "comment": "NuSafe NIOSH certified N95", "timestamp": "6/21/2013 17:53:16", "price": "$50", "longitude": "103.87811", "item": "N95 Mask", "address": "37 Kallang Pudding Rd, #01-12, Tong Lee Building Blk B, Singapore 349315", "latitude": "1.32944", "ID": 74, "quantity": "20"}, {"shop": "guardian", "timestamp": "6/21/2013 17:53:23", "longitude": 103.8509656, "item": "N95 Mask", "address": "shaw plaza", "latitude": 1.3249047, "ID": 75}, {"shop": "guardian", "timestamp": "6/21/2013 17:59:07", "price": "$2", "longitude": -81.759952, "item": "N95 Mask", "address": "white sand", "latitude": 28.486192, "ID": 76}, {"shop": "Unity NTUC Healthecare Dawson Rd", "comment": "max 6 per person", "timestamp": "6/21/2013 18:30:57", "price": "$1.8", "longitude": 103.810934, "item": "N95 Mask", "address": "Blk 57 Dawson Place, SIngapore 142057", "latitude": 1.292802, "ID": 77, "quantity": ""}, {"shop": "GIANT ", "timestamp": "6/21/2013 18:38:27", "longitude": 103.8579965, "item": "N95 Mask", "address": "KIM KEAT AVE", "latitude": 1.3324657, "ID": 78}, {"shop": "guardian", "timestamp": "6/21/2013 19:11:04", "longitude": 103.7473389, "item": "N95 Mask", "address": "yew tee", "latitude": 1.3975669, "ID": 79}, {"shop": "Shamshad Shah", "timestamp": "6/21/2013 19:15:06", "price": "$654", "longitude": 103.7960431, "item": "Air purifier", "address": "blk 701 Woodlands Dr.40,#11-114 (730701)", "latitude": 1.4417932, "ID": 80}, {"shop": "AllDealsAsia.com", "comment": "", "timestamp": "6/21/2013 19:35:56", "price": "S$1.50-3.00", "longitude": "103.86039", "item": "N95 Mask", "address": "119 Jalan Sultan S199008", "latitude": "1.30439", "ID": 81, "quantity": ""}, {"shop": "Unity", "timestamp": "6/21/2013 19:57:41", "longitude": 103.745046, "item": "N95 Mask", "address": "Lot One Shoppers' Mall #B1-04/05, 21 Choa Chu Kang Avenue 4, 689812", "latitude": 1.384848, "ID": 82}, {"shop": "Unity", "timestamp": "6/21/2013 20:14:15", "price": "$1.8", "longitude": 103.8729869, "item": "N95 Mask", "address": "Serangoon Central", "latitude": 1.3511378, "ID": 83}, {"shop": "Guardian", "comment": "SOLD OUT", "timestamp": "6/21/2013 21:06:51", "price": "", "longitude": 103.904622, "item": "N95 Mask", "address": "112 Katong, 112 East Coast Road Singapore 428802", "latitude": 1.305511, "ID": 84, "quantity": ""}, {"shop": "nuh pharmacy", "comment": "", "timestamp": "6/21/2013 21:38:38", "price": "$2.5", "longitude": "103.78295", "item": "N95 Mask", "address": "5 Lower Kent Ridge Road Singapore 119074", "latitude": "1.29473", "ID": 85, "quantity": ""}, {"shop": "Chinese medical shop", "comment": "", "timestamp": "6/21/2013 21:45:08", "price": "$3.5", "longitude": "103.70603", "item": "N95 Mask", "address": "Boon Lay MRT Station Singapore", "latitude": "1.33876", "ID": 86, "quantity": ""}, {"shop": "Mass technologies", "timestamp": "6/21/2013 22:38:11", "price": "$37.45", "longitude": 103.7511562, "item": "N95 Mask", "address": "7 bukit batok st 22", "latitude": 1.3448752, "ID": 87, "quantity": "20"}, {"shop": "Medic Pharmacy", "timestamp": "6/21/2013 23:16:40", "price": "$10", "longitude": 103.8432775, "item": "N95 Mask", "address": "Tanjong Pagar Plaza #01-57", "latitude": 1.2763644, "ID": 88}, {"shop": "Fabrico", "timestamp": "6/22/2013 5:57:10", "longitude": 103.8416314, "item": "N95 Mask", "address": "39 jalan pemimpin", "latitude": 1.3493311, "ID": 89}, {"shop": "Medic", "comment": "They are nuts.", "timestamp": "6/22/2013 8:18:03", "price": "$5", "longitude": 103.8432775, "item": "N95 Mask", "address": "Tanjong pagar plaza", "latitude": 1.2763644, "ID": 90, "quantity": "1"}, {"shop": "fairprice", "timestamp": "6/22/2013 10:00:10", "price": "2.2", "longitude": 103.931801, "item": "N95 Mask", "address": "bedok", "latitude": 1.3213587, "ID": 91}, {"shop": "Unity Holland V", "comment": "Max 10 per person. Selling 1 @ $2.25 *Will go OOS for sure by noon*", "timestamp": "6/22/2013 11:04:00", "price": "$22.5", "longitude": -0.20565, "item": "N95 Mask", "address": "Holland v mrt", "latitude": 51.50714000000001, "ID": 92, "quantity": "10"}, {"shop": "Guardian", "timestamp": "6/22/2013 12:45:22", "price": "", "longitude": 103.8456194, "item": "N95 Mask", "address": "Ang mo kio", "latitude": 1.3701667, "ID": 93, "quantity": "20"}, {"shop": "QMT", "comment": "This is not 3M, it's by JFY. They also sell P100 (99.97% filter efficiency) at 5 pieces for $25.00.", "timestamp": "6/22/2013 13:05:53", "price": "$36", "longitude": 103.7524452, "item": "N95 Mask", "address": "36 Toh Guan Road Eat #01-40", "latitude": 1.3368991, "ID": 94, "quantity": "12"}, {"shop": "Home Care Shop", "comment": "Tel: +607-2891740", "timestamp": "6/22/2013 13:13:11", "price": "RM80", "longitude": 103.7624547, "item": "N95 Mask", "address": "KSL City Mall, 33 Jalan Seladang Taman Abad, 80250 Johor Bahru, Johor", "latitude": 1.4831581, "ID": 95, "quantity": "20"}, {"shop": "Cold storage", "timestamp": "6/22/2013 13:25:07", "price": "56", "longitude": 103.8782472, "item": "N95 Mask", "address": "Kallang leisure park", "latitude": 1.3012959, "ID": 96, "quantity": "20"}, {"shop": "cold storage", "comment": "i'm still queuing as typing in this. 1:30pm 22/6/2013", "timestamp": "6/22/2013 13:26:06", "price": "", "longitude": -116.6225159, "item": "N95 Mask", "address": "novena", "latitude": 31.8711959, "ID": 97, "quantity": "10/person"}, {"shop": "Unity Healthcare", "comment": "Selling at 45 dollars for box of 20. Apparently no limit to purchase despite news report stating that its limited to 10 pcs per person.", "timestamp": "6/22/2013 13:28:41", "price": "2.25", "longitude": 112.986616, "item": "N95 Mask", "address": "Fortune Centre, Middle Road", "latitude": 28.189494, "ID": 98, "quantity": ""}, {"shop": "TTSH", "comment": "", "timestamp": "6/22/2013 13:34:30", "price": "One box $50", "longitude": "103.84588", "item": "N95 Mask", "address": "11 jalan tan tock seng", "latitude": "1.32142", "ID": 99, "quantity": ""}, {"shop": "Mustafa centre", "comment": "", "timestamp": "6/22/2013 13:42:48", "price": "48", "longitude": "103.85527", "item": "N95 Mask", "address": "Farrer park mrt", "latitude": "1.31003", "ID": 100, "quantity": "20"}, {"shop": "Alen Air Purifier ", "comment": "Pre-order coming this wed or thurs.", "timestamp": "6/22/2013 13:43:13", "price": "", "longitude": 103.8593075, "item": "N95 Mask", "address": "Toa Payoh", "latitude": 1.3381663, "ID": 101, "quantity": "20"}, {"shop": "Seng Kang Polyclinic", "comment": "Polyclinic is only open for half day on Saturday? Anyway, 3M 8210 were sold there earlier..", "timestamp": "6/22/2013 13:43:14", "price": "Around $2.50 each", "longitude": "103.89445", "item": "N95 Mask", "address": "Sengkang Polyclinic", "latitude": "1.39286", "ID": 102, "quantity": "Max 4 per person"}, {"shop": "UNity", "comment": "", "timestamp": "6/22/2013 13:47:34", "price": "$25", "longitude": "103.90412", "item": "N95 Mask", "address": "Rivervale Mall, 11 Rivervale Crescent, Singapore 545082", "latitude": "1.39193", "ID": 103, "quantity": "10"}, {"shop": "Giant", "comment": "1.33796", "timestamp": "6/22/2013 13:51:44", "price": "20 in a box", "longitude": 103.7927985, "item": "N95 Mask", "address": "The Grandstand, 200 Turf Club Road, Singapore 287994", "latitude": 1.3391158, "ID": 104, "quantity": ""}, {"shop": "Lifestyle Mart", "comment": "", "timestamp": "6/22/2013 13:55:13", "price": "$70", "longitude": "103.81728", "item": "N95 Mask", "address": " Safra Mount Faber, 2 Telok Blangah Way, Singapore 098803 ", "latitude": "1.27758", "ID": 105, "quantity": "35"}, {"shop": "Isetan pharmacy", "comment": "1", "timestamp": "6/22/2013 13:55:27", "price": "Orchard Road ", "longitude": "1.30554", "item": "N95 Mask", "address": "350", "latitude": "$4+ per pc, $90+ for 1box.", "ID": 106, "quantity": "$4"}, {"shop": "Unity", "comment": "", "timestamp": "6/22/2013 13:57:25", "price": "$2.5", "longitude": "103.7645", "item": "N95 Mask", "address": "Bukit panjang plaza", "latitude": "1.3799", "ID": 107, "quantity": "1"}, {"shop": "sellingn95", "comment": "- Kimberly-Clark professional R10 Particulate Respirator N95 FFP1 NR (NIOSH N95) -20 pieces per box - Certified National Institute for Occupational Safety and Health (NIOSH) - N95 Particulate Filter - Approved for Solid and Liquid Particle  - Respirators with nuisance odour relief offer protection against unpleasant odour from contaminants   Cash on delivery, self collect at Hougang Avenue 10 Near Hougang Mall (Hougang MRT)  If interested please email, sellingn95@gmail.com  Not a lot of stocks (around 30 boxes left as of 22 Jun 14:00hrs ) as I hand carried from oversea last night. Please email sellingn95@gmail.com or contact 93987517.", "timestamp": "6/22/2013 14:40:59", "price": "$60 per box", "longitude": 103.8923463, "item": "N95 Mask", "address": "hougang ave 10", "latitude": 1.373087, "ID": 108, "quantity": "1 box of 20 face masks"}, {"shop": "Unity", "timestamp": "6/22/2013 14:10:08", "price": "2.25", "longitude": 100.0407473, "item": "N95 Mask", "address": "Sing post ", "latitude": 15.2676884, "ID": 109, "quantity": "Max 4 pax"}, {"shop": "Master Pro", "comment": "", "timestamp": "6/22/2013 14:25:38", "price": "$47", "longitude": "103.75469", "item": "N95 Mask", "address": "48 toh guan road Enterprize hub", "latitude": "1.3369", "ID": 110, "quantity": "20"}, {"shop": "NTUC Jurong East", "comment": "limit to 10 pieces per pax", "timestamp": "6/22/2013 14:31:36", "price": "$2+ per piece", "longitude": "103.7404", "item": "N95 Mask", "address": "Jurong East Central", "latitude": "1.33397", "ID": 111, "quantity": "10"}, {"shop": "Heng Yong Trading", "comment": "uncle quoted to me at $4, but i managed to convinced him to sell at $2.75 (not inclusive of gst). ", "timestamp": "6/22/2013 14:31:39", "price": "$3", "longitude": "103.85277", "item": "N95 Mask", "address": "15 cuff road", "latitude": "1.30706", "ID": 112, "quantity": "3 to 4 boxes left"}, {"shop": "Master Pro", "comment": "", "timestamp": "6/22/2013 14:55:14", "price": "$35 before GST", "longitude": "103.87566", "item": "N95 Mask", "address": "50 Seragoon North Ave 4", "latitude": "1.37565", "ID": 113, "quantity": ""}, {"shop": "Unity", "comment": "Each adult allowed to buy 5 adult sized masks and 5 child sized masks. Still have stock at 22 June, 1.40pm", "timestamp": "6/22/2013 15:07:01", "price": "$2.25", "longitude": "103.779", "item": "N95 Mask", "address": "Bukit Timah plaza", "latitude": "1.33918", "ID": 114, "quantity": "5 adult, 5 child"}, {"shop": "Individual", "comment": "A group of us pooled and ordered more to share around. Cost at $3.00. While stock lasts.  Stocks ordered directly from 3M. Be careful as there are a lot of fakes being sold.  Call +65 8544 8080.", "timestamp": "6/22/2013 15:52:25", "price": "$3", "longitude": 13.914399, "item": "N95 Mask", "address": "East", "latitude": 3.950512799999999, "ID": 115, "quantity": "Any"}, {"shop": "PPE Distribution (S) Pte Ltd", "comment": "Initial quote when calling today 22/6/2013 was $45 per box of Moldex 2300 (10 pieces). 1 hour later my wife called and price went up to $60 per box. When we went to the shop to see-look see-look, we heard quotation to a customer before us of $100 for the same box of Moldex.  Original selling price is around $20 per box. It is an unknown brand, plus too expensive,so we didn't buy.", "timestamp": "6/22/2013 16:01:37", "price": "Prices varied. Now >$60", "longitude": "103.9419", "item": "N95 Mask", "address": "Blk 9004 Tampines St 93 #03-124 Tampines Industrial Park A Singapore 528838", "latitude": "1.34068", "ID": 116, "quantity": "10"}, {"shop": "Self-Fix", "comment": "", "timestamp": "6/22/2013 16:12:19", "price": "49.9", "longitude": "103.83576", "item": "Air purifier", "address": "Northpoint Basement", "latitude": "1.42966", "ID": 117, "quantity": "1"}, {"shop": "Unity @JEM,", "comment": "Limit 10 per customer", "timestamp": "6/22/2013 16:25:22", "price": "2.25", "longitude": "103.74367", "item": "N95 Mask", "address": "50 Jurong Gateway Road, Singapore, Singapore 608549", "latitude": "1.33312", "ID": 118, "quantity": "1"}, {"shop": "Unity @ NTUC", "comment": "As at 22th of June, 4.45pm: Stocks are running low. Each person limit 10 and 1 pcs at $2.25 (10% off)  Comes in two sizes, 8110S (small) and 1860 (big). Allow fittings.", "timestamp": "6/22/2013 17:18:36", "price": "$2.25", "longitude": "103.93156", "item": "N95 Mask", "address": "Blk 212 , Bedok North Street 1 , #01-147, SINGAPORE  460212 ", "latitude": "1.32614", "ID": 119, "quantity": "1"}, {"shop": "QSS", "comment": "Sold out - new stock arriving Monday, Limited to 2 boxes per person", "timestamp": "6/22/2013 18:00:04", "price": "$43 per box", "longitude": "103.89474", "item": "N95 Mask", "address": "Intrepid Warehouse Complex. 239 Ubi Ave 4", "latitude": "1.33581", "ID": 120, "quantity": ""}, {"shop": "Econ MArt", "comment": "it's 3M  respirator mask N93...close to N95.", "timestamp": "6/22/2013 18:07:35", "price": "$11 ea", "longitude": 103.832671, "item": "N95 Mask", "address": "SEng Poh Rd", "latitude": 1.2846128, "ID": 121, "quantity": "9"}, {"shop": "Cold Storage", "comment": "$49.90 for a box of 20, not sold individually", "timestamp": "6/22/2013 18:53:35", "price": "49.9", "longitude": "103.87251", "item": "N95 Mask", "address": "NEX Serangoon", "latitude": "1.35074", "ID": 122, "quantity": "20"}, {"shop": "Unity ", "comment": "Max 4 per pax", "timestamp": "6/22/2013 19:22:33", "price": "$2.25", "longitude": "103.84815", "item": "N95 Mask", "address": "Amk hub  2", "latitude": "1.36929", "ID": 123, "quantity": ""}, {"shop": "Guardian", "comment": "Terrible", "timestamp": "6/22/2013 19:24:43", "price": "$10/-", "longitude": -83.5474225, "item": "N95 Mask", "address": "Parkway", "latitude": 35.7793119, "ID": 124, "quantity": "1"}, {"shop": "Unity Pharmacy", "comment": "Both Adult and children sizes available, 10 pieces per person", "timestamp": "6/22/2013 19:43:22", "price": "2.25 per piece", "longitude": "103.84507", "item": "N95 Mask", "address": "Plaza Singapura", "latitude": "1.3008", "ID": 125, "quantity": ""}, {"shop": "NEX guardian", "comment": "$5.60 for two masks. Limited to 1 packet (of two masks) per person. ", "timestamp": "6/22/2013 20:05:11", "price": "5.6", "longitude": "103.87251", "item": "N95 Mask", "address": "NEX Serangoon", "latitude": "1.35074", "ID": 126, "quantity": "2"}, {"shop": "n95", "comment": "Kimberly Clark N95 Mask . still have stocks .  Interested to call 93987517", "timestamp": "6/22/2013 20:15:29", "price": "1 box $50", "longitude": 103.8930556, "item": "N95 Mask", "address": "hougang", "latitude": 1.3717778, "ID": 127, "quantity": "20"}, {"shop": "Utility", "comment": "10/person ", "timestamp": "6/22/2013 20:46:04", "price": "$2.25", "longitude": "103.8938", "item": "N95 Mask", "address": "Hougang mall basement ", "latitude": "1.3726", "ID": 128, "quantity": ""}, {"shop": "Unity", "comment": "10/person ", "timestamp": "6/22/2013 21:35:36", "price": "2.25", "longitude": "103.8237", "item": "N95 Mask", "address": "Tanglin Mall", "latitude": "1.3052", "ID": 129, "quantity": ""}, {"shop": "Bishan Watsons", "comment": "Limit to 5 N95 masks per customer. ", "timestamp": "6/22/2013 22:33:17", "price": "50", "longitude": "103.8447", "item": "N95 Mask", "address": "Blk 282 Bishan Street 22 #01-109 & 111, Singapore 570282", "latitude": "1.3585", "ID": 130, "quantity": "20"}, {"shop": "Watson @ Bishan Junction 8", "comment": "Limit to 5 N95 masks per customer.", "timestamp": "6/22/2013 22:36:22", "price": "50", "longitude": "103.8488", "item": "N95 Mask", "address": "#02-45/46. 9 Bishan Place Singapore 579837", "latitude": "1.35018", "ID": 131, "quantity": "20"}, {"shop": "Watsons", "comment": "", "timestamp": "6/22/2013 22:42:30", "price": "$2.5", "longitude": "103.8275", "item": "N95 Mask", "address": "Tiong Bahru Plaza", "latitude": "1.2874", "ID": 132, "quantity": "20"}, {"shop": "NTUC Unity", "comment": "N95 1860 stock (green) S$2.25, adults and kids, 10 masks max per pax can mix adult or kids, running low. NTUC Fairprice stock coming in tmrw 2pm, Queue at cashier counter 1 or 2 to purchase.", "timestamp": "6/22/2013 23:06:54", "price": "S$2.25", "longitude": "103.80146", "item": "N95 Mask", "address": "460 Alexandra Road, Singapore, Singapore 119963", "latitude": "1.27367", "ID": 133, "quantity": "10 per pax"}]
